hospital_id,name,city,state,country,region,latitude,longitude,beds_total,beds_occupied,capacity_tier,occupancy_rate,occupancy_category,icu_available,ventilators_available,blood_bank_available,ambulance_capacity,emergency_level,trauma_center_level,current_emergency_load,surge_status,waiting_time_estimate_minutes,response_time_avg_minutes,specialties,hospital_website_url,road_accessibility,public_transport_access,average_travel_time_minutes
HOSP-USA-00001,NewYork-Presbyterian Hospital,New York,New York,USA,North America,40.7652,-73.9554,2600,1768,Very Large,68.0,Low,True,166,True,17,critical,Level 1,low,normal,28,25,"Emergency Medicine, Ophthalmology, Cardiology, Orthopedics, Gynecology, Radiology, Dermatology, Obstetrics, Oncology, Surgery, Pediatrics, Internal Medicine, Anesthesiology",https://www.nyp.org,6,8,37
HOSP-USA-00002,Mount Sinai Hospital,New York,New York,USA,North America,40.7903,-73.9521,1134,950,Very Large,83.77,Moderate,True,165,True,7,high,Level 1,medium,normal,56,20,"Psychiatry, Emergency Medicine, Gynecology, Internal Medicine, Radiology",https://www.mountsinai.org,8,8,26
HOSP-USA-00003,NYU Langone Health,New York,New York,USA,North America,40.7424,-73.973,830,605,Large,72.89,Moderate,True,71,True,5,high,Level 3,low,normal,7,9,"Dermatology, Orthopedics, Cardiology, Surgery",https://nyulangone.org,7,6,15
HOSP-USA-00004,Lenox Hill Hospital,New York,New York,USA,North America,40.7685,-73.9594,652,488,Large,74.85,Moderate,True,93,True,4,high,Level 1,high,normal,66,25,"Surgery, Pediatrics, Obstetrics",https://lenoxhill.northwell.edu,7,5,39
HOSP-USA-00005,Bellevue Hospital Center,New York,New York,USA,North America,40.739,-73.9756,844,600,Large,71.09,Moderate,True,64,True,5,medium,Level 2,medium,normal,56,18,"Surgery, Obstetrics, Internal Medicine, Neurology",https://www.nychhc.org/bellevue,7,9,41
HOSP-USA-00006,Cedars-Sinai Medical Center,Los Angeles,California,USA,North America,34.0755,-118.377,886,638,Large,72.01,Moderate,True,79,True,5,high,Level 3,medium,normal,28,24,"Dermatology, Cardiology, Neurology, Obstetrics",https://www.cedars-sinai.org,9,4,13
HOSP-USA-00007,UCLA Medical Center,Los Angeles,California,USA,North America,34.0652,-118.4451,520,392,Large,75.38,Moderate,True,39,True,3,high,Level 2,medium,normal,46,11,"Cardiology, Pediatrics, Surgery",https://www.uclahealth.org,10,6,31
HOSP-USA-00008,USC Keck Hospital,Los Angeles,California,USA,North America,34.0617,-118.2081,401,289,Medium,72.07,Moderate,True,56,True,2,medium,Level 2,high,normal,83,24,"Oncology, Psychiatry, Neurology",https://www.keckmedicine.org,10,5,19
HOSP-USA-00009,Providence Saint John's Health Center,Los Angeles,California,USA,North America,34.031,-118.4985,266,215,Medium,80.83,Moderate,True,22,True,2,medium,Level 2,critical,normal,168,15,"Gynecology, Internal Medicine, Cardiology",https://www.providence.org/stjohns,10,4,15
HOSP-CAN-00010,Toronto General Hospital,Toronto,Ontario,Canada,North America,43.6591,-79.3883,471,390,Medium,82.8,Moderate,True,48,True,3,high,Level 2,high,alert,72,25,"Surgery, Obstetrics, Dermatology",https://www.uhn.ca,7,9,29
HOSP-CAN-00011,Mount Sinai Hospital Toronto,Toronto,Ontario,Canada,North America,43.6556,-79.3889,443,317,Medium,71.56,Moderate,True,46,True,2,medium,Level 2,medium,normal,20,10,"Ophthalmology, Emergency Medicine, Oncology",https://www.sinaihealth.ca,6,5,14
HOSP-CAN-00012,Sunnybrook Health Sciences Centre,Toronto,Ontario,Canada,North America,43.7236,-79.3775,1300,920,Very Large,70.77,Moderate,True,139,True,8,high,Level 2,medium,normal,50,21,"Obstetrics, Surgery, Oncology, Dermatology, Gynecology, Internal Medicine",https://sunnybrook.ca,7,4,16
HOSP-CAN-00013,St. Michael's Hospital,Toronto,Ontario,Canada,North America,43.6544,-79.3774,467,315,Medium,67.45,Low,True,63,True,3,medium,Level 2,medium,normal,32,25,"Neurology, Pediatrics, Internal Medicine",https://www.unityhealth.to,9,5,37
HOSP-UNI-00014,St Thomas' Hospital,London,England,United Kingdom,Europe,51.4982,-0.1188,840,568,Large,67.62,Low,True,43,True,5,high,Level 2,low,normal,29,15,"Internal Medicine, Orthopedics, Surgery, Emergency Medicine",https://www.guysandstthomas.nhs.uk,7,7,41
HOSP-UNI-00015,Guy's Hospital,London,England,United Kingdom,Europe,51.5033,-0.0872,726,653,Large,89.94,High,True,86,True,4,critical,Level 1,high,normal,232,23,"Anesthesiology, Gynecology, Radiology",https://www.guysandstthomas.nhs.uk,8,5,13
HOSP-UNI-00016,Royal London Hospital,London,England,United Kingdom,Europe,51.5176,-0.0595,645,502,Large,77.83,Moderate,True,35,True,4,critical,Level 2,medium,normal,68,10,"Surgery, Cardiology, Anesthesiology",https://www.bartshealth.nhs.uk,10,4,25
HOSP-UNI-00017,University College Hospital,London,England,United Kingdom,Europe,51.5246,-0.134,665,507,Large,76.24,Moderate,True,95,True,4,high,Level 2,medium,normal,85,15,"Obstetrics, Ophthalmology, Pediatrics",https://www.uclh.nhs.uk,8,7,18
HOSP-UNI-00018,King's College Hospital,London,England,United Kingdom,Europe,51.4682,-0.094,900,696,Large,77.33,Moderate,True,51,True,6,critical,Level 3,medium,normal,78,12,"Oncology, Pediatrics, Neurology, Internal Medicine",https://www.kch.nhs.uk,8,4,25
HOSP-FRA-00019,Hôpital Pitié-Salpêtrière,Paris,Île-de-France,France,Europe,48.8389,2.3629,1700,1347,Very Large,79.24,Moderate,True,243,True,11,critical,Level 1,low,normal,62,16,"Neurology, Pediatrics, Dermatology, Anesthesiology, Orthopedics, Oncology, Obstetrics, Psychiatry",https://pitiesalpetriere.aphp.fr,6,4,45
HOSP-FRA-00020,Hôpital Européen Georges-Pompidou,Paris,Île-de-France,France,Europe,48.8406,2.2769,875,718,Large,82.06,Moderate,True,72,True,5,critical,Level 1,low,alert,78,13,"Radiology, Emergency Medicine, Cardiology, Psychiatry",https://hopital-georgespompidou.aphp.fr,10,9,37
HOSP-FRA-00021,Hôpital Cochin,Paris,Île-de-France,France,Europe,48.8382,2.3381,650,428,Large,65.85,Low,True,60,True,4,high,Level 2,low,normal,16,9,"Obstetrics, Cardiology, Oncology",https://hopital-cochin.aphp.fr,8,5,25
HOSP-FRA-00022,Hôpital Necker-Enfants Malades,Paris,Île-de-France,France,Europe,48.8467,2.3116,648,552,Large,85.19,High,True,42,True,4,critical,Level 1,high,normal,135,21,"Pediatrics, Neurology, Psychiatry",https://hopital-necker.aphp.fr,8,7,25
HOSP-GER-00023,Charité – Universitätsmedizin Berlin,Berlin,Berlin,Germany,Europe,52.5254,13.377,3000,2130,Very Large,71.0,Moderate,True,241,True,20,critical,Level 1,high,normal,74,15,"Surgery, Oncology, Pediatrics, Cardiology, Psychiatry, Dermatology, Radiology, Ophthalmology, Anesthesiology, Obstetrics, Neurology, Emergency Medicine, Orthopedics, Gynecology, Internal Medicine",https://www.charite.de,6,9,22
HOSP-GER-00024,Vivantes Klinikum Neukölln,Berlin,Berlin,Germany,Europe,52.4544,13.4397,970,786,Large,81.03,Moderate,True,90,True,6,high,Level 2,critical,alert,119,20,"Gynecology, Surgery, Emergency Medicine, Radiology",https://www.vivantes.de,7,6,12
HOSP-GER-00025,DRK Kliniken Berlin,Berlin,Berlin,Germany,Europe,52.4519,13.335,420,356,Medium,84.76,Moderate,True,60,True,2,medium,Level 3,critical,alert,170,11,"Obstetrics, Surgery, Oncology",https://www.drk-kliniken-berlin.de,8,8,29
HOSP-SPA-00026,Hospital Universitario La Paz,Madrid,Madrid,Spain,Europe,40.479,-3.6891,1360,1038,Very Large,76.32,Moderate,True,190,True,9,critical,Level 1,high,normal,83,20,"Pediatrics, Orthopedics, Surgery, Anesthesiology, Gynecology, Oncology",https://www.comunidad.madrid/hospital/lapaz,10,4,29
HOSP-SPA-00027,Hospital Universitario 12 de Octubre,Madrid,Madrid,Spain,Europe,40.3749,-3.7048,1365,1061,Very Large,77.73,Moderate,True,91,True,9,critical,Level 2,low,normal,110,18,"Orthopedics, Psychiatry, Ophthalmology, Neurology, Emergency Medicine, Obstetrics",https://www.comunidad.madrid/hospital/12octubre,6,5,29
HOSP-SPA-00028,Hospital Universitario Ramón y Cajal,Madrid,Madrid,Spain,Europe,40.4928,-3.6527,955,727,Large,76.13,Moderate,True,114,True,6,high,Level 1,medium,normal,76,12,"Orthopedics, Neurology, Psychiatry, Gynecology",https://www.comunidad.madrid/hospital/ramonycajal,6,4,37
HOSP-SPA-00029,Hospital Clínico San Carlos,Madrid,Madrid,Spain,Europe,40.4366,-3.724,970,750,Large,77.32,Moderate,True,144,True,6,critical,Level 2,medium,normal,101,24,"Ophthalmology, Neurology, Gynecology, Internal Medicine",https://www.comunidad.madrid/hospital/clinicosancarlos,9,8,38
HOSP-JAP-00030,The University of Tokyo Hospital,Tokyo,Tokyo,Japan,Asia,35.7138,139.7622,1217,1042,Very Large,85.62,High,True,94,True,8,critical,Level 1,low,normal,163,15,"Neurology, Ophthalmology, Orthopedics, Surgery, Dermatology, Psychiatry",https://www.h.u-tokyo.ac.jp/english,8,8,15
HOSP-JAP-00031,Keio University Hospital,Tokyo,Tokyo,Japan,Asia,35.6811,139.723,1044,795,Very Large,76.15,Moderate,True,146,True,6,high,Level 1,medium,normal,47,20,"Pediatrics, Psychiatry, Surgery, Dermatology, Radiology",https://www.hosp.keio.ac.jp/english,9,4,32
HOSP-JAP-00032,Tokyo Medical University Hospital,Tokyo,Tokyo,Japan,Asia,35.692,139.7149,1015,793,Very Large,78.13,Moderate,True,90,True,6,high,Level 1,high,normal,96,13,"Emergency Medicine, Surgery, Anesthesiology, Psychiatry, Obstetrics",https://hospital.tokyo-med.ac.jp,9,5,44
HOSP-JAP-00033,St. Luke's International Hospital,Tokyo,Tokyo,Japan,Asia,35.6699,139.7782,520,363,Large,69.81,Low,True,49,True,3,high,Level 2,medium,normal,44,16,"Internal Medicine, Emergency Medicine, Gynecology",https://hospital.luke.ac.jp/eng,9,6,15
HOSP-IND-00034,Tata Memorial Hospital,Mumbai,Maharashtra,India,Asia,19.0074,72.8392,629,519,Large,82.51,Moderate,True,78,True,4,critical,Level 2,critical,alert,141,8,"Obstetrics, Cardiology, Anesthesiology",https://tmc.gov.in,7,5,40
HOSP-IND-00035,Lilavati Hospital,Mumbai,Maharashtra,India,Asia,19.0589,72.8318,332,230,Medium,69.28,Low,True,20,True,2,high,Level 3,high,normal,84,11,"Anesthesiology, Obstetrics, Surgery",https://www.lilavatihospital.com,10,4,29
HOSP-IND-00036,Breach Candy Hospital,Mumbai,Maharashtra,India,Asia,18.9753,72.8054,185,154,Small,83.24,Moderate,True,23,True,2,medium,Level 4,high,normal,60,9,"Cardiology, Radiology, Obstetrics",https://www.breachcandyhospital.org,9,9,33
HOSP-IND-00037,Sir HN Reliance Foundation Hospital,Mumbai,Maharashtra,India,Asia,19.0019,72.8337,345,264,Medium,76.52,Moderate,True,33,True,2,medium,,low,normal,67,24,"Psychiatry, Internal Medicine, Dermatology",https://www.rfhospital.org,8,8,44
HOSP-SIN-00038,Singapore General Hospital,Singapore,Singapore,Singapore,Asia,1.2797,103.8358,1785,1570,Very Large,87.96,High,True,246,True,11,critical,Level 1,medium,normal,208,20,"Internal Medicine, Orthopedics, Oncology, Pediatrics, Psychiatry, Gynecology, Anesthesiology, Emergency Medicine",https://www.sgh.com.sg,9,6,21
HOSP-SIN-00039,National University Hospital,Singapore,Singapore,Singapore,Asia,1.2935,103.7834,1200,911,Very Large,75.92,Moderate,True,117,True,8,critical,Level 1,high,normal,102,8,"Surgery, Gynecology, Orthopedics, Pediatrics, Obstetrics, Anesthesiology",https://www.nuh.com.sg,6,6,24
HOSP-SIN-00040,Tan Tock Seng Hospital,Singapore,Singapore,Singapore,Asia,1.321,103.8456,1600,1470,Very Large,91.88,High,True,152,True,10,critical,Level 1,medium,overload,149,11,"Psychiatry, Gynecology, Neurology, Orthopedics, Dermatology, Internal Medicine, Pediatrics, Radiology",https://www.ttsh.com.sg,8,4,44
HOSP-SIN-00041,Mount Elizabeth Hospital,Singapore,Singapore,Singapore,Asia,1.3054,103.8358,345,257,Medium,74.49,Moderate,True,21,True,2,medium,Level 3,low,normal,6,25,"Obstetrics, Dermatology, Psychiatry",https://www.mountelizabeth.com.sg,8,9,18
HOSP-AUS-00042,Royal Prince Alfred Hospital,Sydney,New South Wales,Australia,Oceania,-33.8882,151.1827,800,621,Large,77.62,Moderate,True,44,True,5,high,Level 1,critical,normal,212,11,"Cardiology, Anesthesiology, Obstetrics, Psychiatry",https://www.slhd.nsw.gov.au/rpa,6,7,41
HOSP-AUS-00043,St Vincent's Hospital Sydney,Sydney,New South Wales,Australia,Oceania,-33.8794,151.2221,576,387,Large,67.19,Low,True,52,True,3,high,Level 2,medium,normal,59,15,"Ophthalmology, Internal Medicine, Pediatrics",https://www.svha.org.au,10,7,38
HOSP-AUS-00044,Westmead Hospital,Sydney,New South Wales,Australia,Oceania,-33.8074,150.9877,975,797,Large,81.74,Moderate,True,141,True,6,high,Level 2,medium,alert,72,16,"Radiology, Cardiology, Neurology, Emergency Medicine",https://www.wslhd.health.nsw.gov.au/Westmead-Hospital,7,5,21
HOSP-AUS-00045,Prince of Wales Hospital,Sydney,New South Wales,Australia,Oceania,-33.9177,151.2412,450,296,Medium,65.78,Low,True,61,True,3,medium,Level 2,low,normal,12,16,"Surgery, Cardiology, Radiology",https://www.seslhd.health.nsw.gov.au/prince-of-wales-hospital,10,9,22
HOSP-BRA-00046,Hospital das Clínicas FMUSP,São Paulo,São Paulo,Brazil,South America,-23.5559,-46.6715,2200,1472,Very Large,66.91,Low,True,274,True,14,high,Level 1,medium,normal,38,22,"Gynecology, Surgery, Pediatrics, Radiology, Ophthalmology, Internal Medicine, Anesthesiology, Cardiology, Psychiatry, Emergency Medicine, Orthopedics",https://www.hc.fm.usp.br,6,7,29
HOSP-BRA-00047,Hospital Sírio-Libanês,São Paulo,São Paulo,Brazil,South America,-23.5647,-46.6602,286,203,Medium,70.98,Moderate,True,31,True,2,high,,low,normal,29,16,"Internal Medicine, Radiology, Obstetrics",https://www.hospitalsiriolibanes.org.br,10,4,21
HOSP-BRA-00048,Hospital Albert Einstein,São Paulo,São Paulo,Brazil,South America,-23.5987,-46.7145,627,515,Large,82.14,Moderate,True,53,True,4,high,Level 1,medium,normal,58,13,"Dermatology, Psychiatry, Radiology",https://www.einstein.br,9,6,35
HOSP-BRA-00049,Hospital Alemão Oswaldo Cruz,São Paulo,São Paulo,Brazil,South America,-23.551,-46.6645,260,177,Medium,68.08,Low,True,34,True,2,high,,low,normal,22,22,"Radiology, Oncology, Anesthesiology",https://www.hospitaloswaldocruz.org.br,9,4,22
HOSP-SOU-00050,Charlotte Maxeke Johannesburg Academic Hospital,Johannesburg,Gauteng,South Africa,Africa,-26.187,28.0311,1088,785,Very Large,72.15,Moderate,True,150,True,7,high,Level 1,medium,normal,21,15,"Emergency Medicine, Radiology, Surgery, Cardiology, Orthopedics",https://www.jhb-academic.org.za,7,6,45
HOSP-SOU-00051,Netcare Milpark Hospital,Johannesburg,Gauteng,South Africa,Africa,-26.1834,28.0138,426,351,Medium,82.39,Moderate,True,33,True,2,medium,,high,alert,98,23,"Neurology, Surgery, Orthopedics",https://www.netcare.co.za,7,7,45
HOSP-SOU-00052,Life Fourways Hospital,Johannesburg,Gauteng,South Africa,Africa,-26.0209,28.0084,267,193,Medium,72.28,Moderate,True,38,True,2,high,Level 3,medium,normal,20,17,"Dermatology, Neurology, Internal Medicine",https://www.lifehealthcare.co.za,8,8,41
HOSP-SOU-00053,Sandton Mediclinic,Johannesburg,Gauteng,South Africa,Africa,-26.107,28.0546,200,150,Medium,75.0,Moderate,True,29,True,2,medium,,medium,normal,44,15,"Gynecology, Internal Medicine, Ophthalmology",https://www.mediclinic.co.za,9,4,30
HOSP-EGY-00054,Cairo University Hospitals,Cairo,Cairo,Egypt,Africa,30.0265,31.2108,3200,2927,Very Large,91.47,High,True,320,True,21,critical,Level 1,medium,alert,115,22,"Surgery, Dermatology, Obstetrics, Neurology, Cardiology, Internal Medicine, Pediatrics, Oncology, Radiology, Anesthesiology, Orthopedics, Emergency Medicine, Psychiatry, Gynecology, Ophthalmology",https://www.cu.edu.eg,9,4,19
HOSP-EGY-00055,Ain Shams University Hospitals,Cairo,Cairo,Egypt,Africa,30.072,31.2814,1500,989,Very Large,65.93,Low,True,213,True,10,high,Level 1,critical,normal,113,21,"Internal Medicine, Neurology, Gynecology, Pediatrics, Emergency Medicine, Obstetrics, Oncology",https://www.asu.edu.eg,6,9,16
HOSP-EGY-00056,Dar Al Fouad Hospital,Cairo,Cairo,Egypt,Africa,30.0164,30.9976,250,172,Medium,68.8,Low,True,32,True,2,medium,Level 3,low,normal,7,20,"Internal Medicine, Anesthesiology, Neurology",https://www.daralfouad.org,10,9,25
HOSP-EGY-00057,As-Salam International Hospital,Cairo,Cairo,Egypt,Africa,30.0865,31.3409,320,265,Medium,82.81,Moderate,True,25,True,2,high,Level 3,medium,alert,54,22,"Gynecology, Pediatrics, Internal Medicine",https://www.assih.com,10,6,37
HOSP-MEX-00058,Hospital General de México,Mexico City,Mexico City,Mexico,North America,19.4117,-99.1536,482,327,Medium,67.84,Low,True,38,True,3,medium,Level 2,high,normal,47,20,"Ophthalmology, Anesthesiology, Gynecology",https://www.hgm.salud.gob.mx,8,4,13
HOSP-MEX-00059,ABC Medical Center,Mexico City,Mexico City,Mexico,North America,19.3668,-99.202,450,366,Medium,81.33,Moderate,True,50,True,3,medium,Level 3,high,alert,62,11,"Emergency Medicine, Anesthesiology, Oncology",https://www.abchospital.com,6,6,38
HOSP-MEX-00060,Hospital Ángeles del Pedregal,Mexico City,Mexico City,Mexico,North America,19.3181,-99.2165,154,131,Small,85.06,High,True,16,True,2,low,Level 4,critical,alert,225,24,"Psychiatry, Pediatrics, Gynecology",https://www.hospitalesangeles.com,7,6,40
HOSP-ITA-00061,Policlinico Universitario Agostino Gemelli,Rome,Lazio,Italy,Europe,41.9208,12.4486,1500,1032,Very Large,68.8,Low,True,183,True,10,critical,Level 2,critical,normal,232,19,"Pediatrics, Radiology, Cardiology, Internal Medicine, Oncology, Ophthalmology, Surgery",https://www.policlinicogemelli.it,6,7,10
HOSP-ITA-00062,Ospedale San Camillo Forlanini,Rome,Lazio,Italy,Europe,41.8684,12.4538,875,623,Large,71.2,Moderate,True,92,True,5,medium,Level 3,critical,normal,146,10,"Obstetrics, Surgery, Cardiology, Neurology",https://www.scamilloforlanini.rm.it,9,9,29
HOSP-NET-00063,Amsterdam UMC,Amsterdam,North Holland,Netherlands,Europe,52.3351,4.8911,1000,676,Very Large,67.6,Low,True,95,True,6,critical,Level 1,high,normal,114,21,"Ophthalmology, Surgery, Obstetrics, Cardiology, Internal Medicine",https://www.amsterdamumc.org,10,9,19
HOSP-NET-00064,OLVG Amsterdam,Amsterdam,North Holland,Netherlands,Europe,52.3542,4.9224,560,468,Large,83.57,Moderate,True,41,True,3,high,Level 2,medium,alert,92,25,"Pediatrics, Orthopedics, Cardiology",https://www.olvg.nl,8,4,35
HOSP-SWI-00065,University Hospital Zurich,Zurich,Zurich,Switzerland,Europe,47.3774,8.5522,952,673,Large,70.69,Moderate,True,52,True,6,high,Level 3,medium,normal,28,14,"Anesthesiology, Orthopedics, Dermatology, Oncology",https://www.usz.ch,6,8,23
HOSP-SWI-00066,Stadtspital Triemli,Zurich,Zurich,Switzerland,Europe,47.3637,8.4933,330,239,Medium,72.42,Moderate,True,34,True,2,high,,high,normal,59,8,"Psychiatry, Ophthalmology, Orthopedics",https://www.triemli.ch,7,4,32
HOSP-SWE-00067,Karolinska University Hospital,Stockholm,Stockholm,Sweden,Europe,59.3489,18.0239,1600,1094,Very Large,68.38,Low,True,90,True,10,critical,Level 1,medium,normal,43,24,"Radiology, Orthopedics, Anesthesiology, Emergency Medicine, Obstetrics, Ophthalmology, Pediatrics, Internal Medicine",https://www.karolinska.se,10,4,38
HOSP-SWE-00068,Södersjukhuset,Stockholm,Stockholm,Sweden,Europe,59.3003,18.0743,750,573,Large,76.4,Moderate,True,70,True,5,medium,Level 2,high,normal,86,12,"Anesthesiology, Obstetrics, Ophthalmology",https://www.sodersjukhuset.se,6,5,27
HOSP-SOU-00069,Seoul National University Hospital,Seoul,Seoul,South Korea,Asia,37.5796,126.9989,1779,1297,Very Large,72.91,Moderate,True,230,True,11,critical,Level 1,low,normal,25,25,"Ophthalmology, Orthopedics, Surgery, Oncology, Internal Medicine, Psychiatry, Anesthesiology, Cardiology",https://www.snuh.org,7,7,38
HOSP-SOU-00070,Samsung Medical Center,Seoul,Seoul,South Korea,Asia,37.4885,127.0859,1979,1795,Very Large,90.7,High,True,117,True,13,critical,Level 1,low,overload,200,11,"Emergency Medicine, Anesthesiology, Radiology, Psychiatry, Oncology, Cardiology, Surgery, Obstetrics, Gynecology",https://www.samsunghospital.com,8,5,45
HOSP-SOU-00071,Asan Medical Center,Seoul,Seoul,South Korea,Asia,37.5265,127.1088,2704,2464,Very Large,91.12,High,True,291,True,18,critical,Level 1,medium,overload,213,15,"Cardiology, Psychiatry, Pediatrics, Anesthesiology, Orthopedics, Surgery, Radiology, Emergency Medicine, Dermatology, Oncology, Neurology, Internal Medicine, Obstetrics",https://www.amc.seoul.kr,8,8,33
HOSP-UNI-00072,Rashid Hospital,Dubai,Dubai,United Arab Emirates,Other,25.2589,55.3277,750,488,Large,65.07,Low,True,67,True,5,critical,Level 2,low,normal,25,8,"Orthopedics, Surgery, Dermatology",https://www.dha.gov.ae,6,9,43
HOSP-UNI-00073,Dubai Hospital,Dubai,Dubai,United Arab Emirates,Other,25.2365,55.3047,625,460,Large,73.6,Moderate,True,86,True,4,critical,Level 2,low,normal,29,9,"Obstetrics, Surgery, Internal Medicine",https://www.dha.gov.ae,6,6,38
HOSP-CHI-00074,Huashan Hospital,Shanghai,Shanghai,China,Asia,31.2132,121.4385,1700,1157,Very Large,68.06,Low,True,200,True,11,critical,Level 1,medium,normal,39,9,"Emergency Medicine, Orthopedics, Pediatrics, Dermatology, Neurology, Psychiatry, Anesthesiology, Oncology",https://www.huashan.org.cn,7,7,13
HOSP-CHI-00075,Ruijin Hospital,Shanghai,Shanghai,China,Asia,31.2098,121.4732,1800,1232,Very Large,68.44,Low,True,190,True,12,critical,Level 1,high,normal,90,10,"Surgery, Emergency Medicine, Internal Medicine, Cardiology, Oncology, Anesthesiology, Ophthalmology, Radiology, Obstetrics",https://www.rjh.com.cn,9,9,12
HOSP-CHI-00076,Zhongshan Hospital,Shanghai,Shanghai,China,Asia,31.1962,121.4413,1700,1548,Very Large,91.06,High,True,163,True,11,high,Level 2,high,overload,182,10,"Anesthesiology, Surgery, Radiology, Cardiology, Dermatology, Pediatrics, Oncology, Orthopedics",https://www.zshospital.com,6,5,37
HOSP-ARG-00077,Hospital Italiano de Buenos Aires,Buenos Aires,Buenos Aires,Argentina,South America,-34.6301,-58.4097,750,510,Large,68.0,Low,True,63,True,5,high,Level 3,high,normal,63,15,"Orthopedics, Neurology, Anesthesiology",https://www.hospitalitaliano.org.ar,6,5,26
HOSP-ARG-00078,Hospital Alemán,Buenos Aires,Buenos Aires,Argentina,South America,-34.5915,-58.405,250,226,Medium,90.4,High,True,26,True,2,high,Level 3,medium,overload,234,18,"Cardiology, Internal Medicine, Dermatology",https://www.hospitalaleman.org.ar,8,5,38
HOSP-CHI-00079,Hospital Clínico Universidad de Chile,Santiago,Santiago,Chile,South America,-33.4489,-70.6397,500,372,Large,74.4,Moderate,True,26,True,3,medium,Level 3,medium,normal,38,10,"Surgery, Internal Medicine, Anesthesiology",https://www.redclinica.uchile.cl,6,8,42
HOSP-CHI-00080,Clínica Las Condes,Santiago,Santiago,Chile,South America,-33.4078,-70.5793,319,285,Medium,89.34,High,True,35,True,2,medium,Level 2,medium,normal,105,22,"Radiology, Obstetrics, Neurology",https://www.clinicalascondes.cl,8,9,15
HOSP-USA-00081,Northwestern Memorial Hospital,Chicago,Illinois,USA,North America,41.8958,-87.6208,894,692,Large,77.4,Moderate,True,79,True,5,critical,Level 1,medium,normal,109,11,"Gynecology, Internal Medicine, Pediatrics, Emergency Medicine",https://www.nm.org,10,4,15
HOSP-USA-00082,Rush University Medical Center,Chicago,Illinois,USA,North America,41.8745,-87.6696,664,472,Large,71.08,Moderate,True,97,True,4,critical,Level 3,low,normal,16,19,"Internal Medicine, Radiology, Pediatrics",https://www.rush.edu,9,5,35
HOSP-USA-00083,University of Chicago Medical Center,Chicago,Illinois,USA,North America,41.7892,-87.6042,811,666,Large,82.12,Moderate,True,52,True,5,medium,Level 2,high,normal,65,14,"Internal Medicine, Psychiatry, Obstetrics, Surgery",https://www.uchicagomedicine.org,6,9,25
HOSP-USA-00084,Advocate Christ Medical Center,Chicago,Illinois,USA,North America,41.7214,-87.7047,658,471,Large,71.58,Moderate,True,79,True,4,high,Level 3,high,normal,88,24,"Internal Medicine, Surgery, Psychiatry",https://www.advocatehealth.com/christ,8,8,33
HOSP-USA-00085,Lurie Children's Hospital of Chicago,Chicago,Illinois,USA,North America,41.8953,-87.6212,360,276,Medium,76.67,Moderate,True,43,True,2,medium,,medium,normal,110,23,"Emergency Medicine, Obstetrics, Anesthesiology",https://www.luriechildrens.org,10,6,19
HOSP-USA-00086,Massachusetts General Hospital,Boston,Massachusetts,USA,North America,42.3631,-71.0687,999,837,Large,83.78,Moderate,True,138,True,6,critical,Level 2,high,alert,112,14,"Internal Medicine, Emergency Medicine, Gynecology, Cardiology",https://www.massgeneral.org,10,6,31
HOSP-USA-00087,Brigham and Women's Hospital,Boston,Massachusetts,USA,North America,42.3364,-71.1067,793,642,Large,80.96,Moderate,True,47,True,5,medium,Level 2,high,alert,64,23,"Neurology, Emergency Medicine, Psychiatry",https://www.brighamandwomens.org,6,9,38
HOSP-USA-00088,Beth Israel Deaconess Medical Center,Boston,Massachusetts,USA,North America,42.3385,-71.1051,673,466,Large,69.24,Low,True,39,True,4,medium,Level 1,medium,normal,45,9,"Internal Medicine, Oncology, Gynecology",https://www.bidmc.org,10,7,40
HOSP-USA-00089,Boston Medical Center,Boston,Massachusetts,USA,North America,42.336,-71.0727,496,378,Medium,76.21,Moderate,True,28,True,3,high,,critical,normal,158,20,"Orthopedics, Ophthalmology, Emergency Medicine",https://www.bmc.org,8,9,16
HOSP-USA-00090,Tufts Medical Center,Boston,Massachusetts,USA,North America,42.3496,-71.0637,415,273,Medium,65.78,Low,True,32,True,2,medium,,medium,normal,25,15,"Dermatology, Cardiology, Anesthesiology",https://www.tuftsmedicalcenter.org,8,9,11
HOSP-USA-00091,Houston Methodist Hospital,Houston,Texas,USA,North America,29.7085,-95.4,948,802,Large,84.6,Moderate,True,49,True,6,medium,Level 3,high,normal,90,25,"Gynecology, Oncology, Radiology, Surgery",https://www.houstonmethodist.org,6,9,10
HOSP-USA-00092,Memorial Hermann Texas Medical Center,Houston,Texas,USA,North America,29.7085,-95.3982,925,654,Large,70.7,Moderate,True,97,True,6,medium,Level 3,medium,normal,60,22,"Cardiology, Obstetrics, Pediatrics, Neurology",https://www.memorialhermann.org,7,7,42
HOSP-USA-00093,MD Anderson Cancer Center,Houston,Texas,USA,North America,29.7074,-95.3988,668,505,Large,75.6,Moderate,True,90,True,4,high,Level 2,low,normal,50,22,"Internal Medicine, Cardiology, Gynecology",https://www.mdanderson.org,9,4,19
HOSP-USA-00094,Texas Children's Hospital,Houston,Texas,USA,North America,29.7085,-95.401,639,513,Large,80.28,Moderate,True,80,True,4,critical,Level 1,medium,alert,66,19,"Obstetrics, Dermatology, Internal Medicine",https://www.texaschildrens.org,9,9,16
HOSP-USA-00095,St. Luke's Health–Baylor St. Luke's Medical Center,Houston,Texas,USA,North America,29.7361,-95.3992,616,438,Large,71.1,Moderate,True,44,True,4,critical,Level 3,critical,normal,147,24,"Neurology, Internal Medicine, Obstetrics",https://www.stlukeshealth.org,6,8,15
HOSP-USA-00096,UCSF Medical Center,San Francisco,California,USA,North America,37.7625,-122.4578,878,683,Large,77.79,Moderate,True,102,True,5,high,Level 3,medium,normal,77,8,"Dermatology, Psychiatry, Cardiology, Gynecology",https://www.ucsfhealth.org,10,8,43
HOSP-USA-00097,California Pacific Medical Center,San Francisco,California,USA,North America,37.7893,-122.4289,696,539,Large,77.44,Moderate,True,60,True,4,high,Level 1,medium,normal,83,11,"Ophthalmology, Anesthesiology, Orthopedics",https://www.sutterhealth.org/cpmc,8,6,38
HOSP-USA-00098,Zuckerberg San Francisco General Hospital,San Francisco,California,USA,North America,37.7558,-122.4044,441,360,Medium,81.63,Moderate,True,25,True,2,high,Level 3,medium,normal,71,18,"Orthopedics, Radiology, Neurology",https://zuckerbergsanfranciscogeneral.org,6,7,11
HOSP-USA-00099,UCSF Benioff Children's Hospital,San Francisco,California,USA,North America,37.7629,-122.3929,183,160,Small,87.43,High,True,10,True,2,medium,Level 5,low,normal,187,12,"Pediatrics, Orthopedics, Ophthalmology",https://www.ucsfbenioffchildrens.org,7,5,27
HOSP-USA-00100,University of Washington Medical Center,Seattle,Washington,USA,North America,47.6507,-122.305,450,333,Medium,74.0,Moderate,True,45,True,3,high,Level 2,low,normal,18,10,"Psychiatry, Anesthesiology, Internal Medicine",https://www.uwmedicine.org/uwmc,8,4,20
HOSP-USA-00101,Harborview Medical Center,Seattle,Washington,USA,North America,47.6056,-122.3197,413,313,Medium,75.79,Moderate,True,22,True,2,medium,,medium,normal,51,10,"Psychiatry, Anesthesiology, Internal Medicine",https://www.uwmedicine.org/harborview,8,4,26
HOSP-USA-00102,Swedish Medical Center,Seattle,Washington,USA,North America,47.6247,-122.3214,697,527,Large,75.61,Moderate,True,86,True,4,high,Level 3,medium,normal,96,21,"Radiology, Orthopedics, Neurology",https://www.swedish.org,7,7,16
HOSP-USA-00103,Virginia Mason Medical Center,Seattle,Washington,USA,North America,47.6095,-122.3345,336,294,Medium,87.5,High,True,28,True,2,medium,,high,normal,159,23,"Radiology, Pediatrics, Anesthesiology",https://www.virginiamason.org,8,9,14
HOSP-USA-00104,Jackson Memorial Hospital,Miami,Florida,USA,North America,25.7847,-80.2133,1550,1189,Very Large,76.71,Moderate,True,90,True,10,high,Level 1,high,normal,57,16,"Pediatrics, Gynecology, Psychiatry, Obstetrics, Radiology, Emergency Medicine, Internal Medicine",https://www.jacksonhealth.org,9,7,44
HOSP-USA-00105,Baptist Health South Florida,Miami,Florida,USA,North America,25.7617,-80.1918,728,491,Large,67.45,Low,True,82,True,4,high,Level 2,medium,normal,41,12,"Surgery, Oncology, Ophthalmology",https://www.baptisthealth.net,9,8,12
HOSP-USA-00106,University of Miami Hospital,Miami,Florida,USA,North America,25.7813,-80.2111,560,477,Large,85.18,High,True,82,True,3,high,Level 2,low,normal,198,8,"Psychiatry, Internal Medicine, Dermatology",https://www.umiamihealth.org,10,6,22
HOSP-USA-00107,Mount Sinai Medical Center Miami Beach,Miami,Florida,USA,North America,25.81,-80.1301,674,463,Large,68.69,Low,True,34,True,4,critical,Level 1,critical,normal,118,15,"Dermatology, Neurology, Surgery",https://www.msmc.com,7,5,40
HOSP-USA-00108,Hospital of the University of Pennsylvania,Philadelphia,Pennsylvania,USA,North America,39.9494,-75.1948,789,595,Large,75.41,Moderate,True,48,True,5,critical,Level 2,medium,normal,62,9,"Emergency Medicine, Radiology, Surgery",https://www.pennmedicine.org/hup,10,9,13
HOSP-USA-00109,Thomas Jefferson University Hospital,Philadelphia,Pennsylvania,USA,North America,39.9479,-75.1591,950,674,Large,70.95,Moderate,True,117,True,6,high,Level 2,high,normal,106,25,"Oncology, Surgery, Pediatrics, Cardiology",https://www.jefferson.edu/hospital,8,9,32
HOSP-USA-00110,Temple University Hospital,Philadelphia,Pennsylvania,USA,North America,39.9714,-75.1521,722,525,Large,72.71,Moderate,True,90,True,4,high,Level 2,high,normal,106,21,"Gynecology, Internal Medicine, Anesthesiology",https://www.templehealth.org,8,7,18
HOSP-USA-00111,Children's Hospital of Philadelphia,Philadelphia,Pennsylvania,USA,North America,39.9481,-75.1914,594,448,Large,75.42,Moderate,True,42,True,3,high,Level 2,low,normal,51,9,"Psychiatry, Oncology, Emergency Medicine",https://www.chop.edu,6,8,38
HOSP-UNI-00112,Manchester Royal Infirmary,Manchester,England,United Kingdom,Europe,53.4618,-2.2259,900,827,Large,91.89,High,True,121,True,6,critical,Level 3,high,overload,237,17,"Ophthalmology, Oncology, Pediatrics, Cardiology",https://www.mft.nhs.uk/mri,8,6,30
HOSP-UNI-00113,Wythenshawe Hospital,Manchester,England,United Kingdom,Europe,53.3848,-2.2645,970,796,Large,82.06,Moderate,True,86,True,6,high,Level 2,medium,alert,96,19,"Gynecology, Pediatrics, Dermatology, Internal Medicine",https://www.mft.nhs.uk/wythenshawe,7,8,24
HOSP-UNI-00114,Salford Royal Hospital,Manchester,England,United Kingdom,Europe,53.4873,-2.3002,720,580,Large,80.56,Moderate,True,80,True,4,high,Level 2,medium,alert,106,17,"Surgery, Gynecology, Neurology",https://www.northerncarealliance.nhs.uk/salford,6,9,43
HOSP-UNI-00115,Queen Elizabeth Hospital Birmingham,Birmingham,England,United Kingdom,Europe,52.4497,-1.9298,1215,1116,Very Large,91.85,High,True,166,True,8,critical,Level 1,low,overload,120,10,"Radiology, Gynecology, Psychiatry, Ophthalmology, Internal Medicine, Obstetrics",https://www.uhb.nhs.uk/qehb.htm,7,5,13
HOSP-UNI-00116,Birmingham Children's Hospital,Birmingham,England,United Kingdom,Europe,52.4814,-1.8998,295,199,Medium,67.46,Low,True,37,True,2,medium,Level 3,medium,normal,56,9,"Cardiology, Emergency Medicine, Gynecology",https://www.bwc.nhs.uk,10,9,19
HOSP-UNI-00117,Heartlands Hospital,Birmingham,England,United Kingdom,Europe,52.4771,-1.8198,650,523,Large,80.46,Moderate,True,81,True,4,high,Level 3,medium,alert,57,10,"Dermatology, Cardiology, Pediatrics",https://www.uhb.nhs.uk/heartlands.htm,9,9,45
HOSP-UNI-00118,Royal Infirmary of Edinburgh,Edinburgh,Scotland,United Kingdom,Europe,55.9216,-3.1358,900,762,Large,84.67,Moderate,True,111,True,6,critical,Level 2,high,normal,114,25,"Cardiology, Emergency Medicine, Gynecology, Internal Medicine",https://www.nhslothian.scot/rie,8,9,41
HOSP-UNI-00119,Western General Hospital,Edinburgh,Scotland,United Kingdom,Europe,55.9613,-3.2364,600,427,Large,71.17,Moderate,True,63,True,4,medium,Level 2,low,normal,10,20,"Neurology, Obstetrics, Anesthesiology",https://www.nhslothian.scot/wgh,6,5,36
HOSP-FRA-00120,Hospices Civils de Lyon,Lyon,Auvergne-Rhône-Alpes,France,Europe,45.7339,4.8786,2100,1653,Very Large,78.71,Moderate,True,126,True,14,critical,Level 2,medium,normal,119,17,"Cardiology, Gynecology, Surgery, Anesthesiology, Oncology, Emergency Medicine, Obstetrics, Psychiatry, Dermatology, Radiology",https://www.chu-lyon.fr,10,9,22
HOSP-FRA-00121,Centre Hospitalier Lyon Sud,Lyon,Auvergne-Rhône-Alpes,France,Europe,45.7011,4.8064,670,475,Large,70.9,Moderate,True,44,True,4,high,Level 2,high,normal,115,22,"Emergency Medicine, Oncology, Obstetrics",https://www.chu-lyon.fr/lyon-sud,9,4,10
HOSP-FRA-00122,Hôpital de la Timone,Marseille,Provence-Alpes-Côte d'Azur,France,Europe,43.2932,5.3988,750,672,Large,89.6,High,True,76,True,5,critical,Level 2,high,alert,230,13,"Cardiology, Anesthesiology, Emergency Medicine",https://www.ap-hm.fr/hopital/timone,9,4,20
HOSP-FRA-00123,Hôpital Nord,Marseille,Provence-Alpes-Côte d'Azur,France,Europe,43.3657,5.3291,627,490,Large,78.15,Moderate,True,53,True,4,medium,Level 3,high,normal,72,22,"Obstetrics, Emergency Medicine, Internal Medicine",https://www.ap-hm.fr/hopital/nord,6,4,39
HOSP-GER-00124,Ludwig Maximilian University Hospital,Munich,Bavaria,Germany,Europe,48.1504,11.571,2260,1739,Very Large,76.95,Moderate,True,265,True,15,critical,Level 1,high,normal,53,16,"Ophthalmology, Cardiology, Radiology, Orthopedics, Dermatology, Psychiatry, Emergency Medicine, Oncology, Surgery, Obstetrics, Anesthesiology",https://www.klinikum.uni-muenchen.de,8,7,22
HOSP-GER-00125,Munich University Hospital rechts der Isar,Munich,Bavaria,Germany,Europe,48.1404,11.6021,1161,916,Very Large,78.9,Moderate,True,98,True,7,critical,Level 1,high,normal,55,10,"Internal Medicine, Emergency Medicine, Anesthesiology, Ophthalmology, Pediatrics",https://www.mri.tum.de,6,6,21
HOSP-GER-00126,Munich City Hospital,Munich,Bavaria,Germany,Europe,48.1351,11.582,850,639,Large,75.18,Moderate,True,66,True,5,high,Level 2,critical,normal,117,22,"Radiology, Obstetrics, Gynecology, Cardiology",https://www.klinikum-muenchen.de,10,5,10
HOSP-GER-00127,University Medical Center Hamburg-Eppendorf,Hamburg,Hamburg,Germany,Europe,53.5902,9.9751,1740,1336,Very Large,76.78,Moderate,True,206,True,11,critical,Level 1,critical,normal,99,16,"Neurology, Pediatrics, Oncology, Dermatology, Anesthesiology, Gynecology, Internal Medicine, Surgery",https://www.uke.de,9,6,11
HOSP-GER-00128,Asklepios Klinik St. Georg,Hamburg,Hamburg,Germany,Europe,53.5532,10.0162,670,566,Large,84.48,Moderate,True,99,True,4,critical,Level 2,critical,normal,115,8,"Dermatology, Cardiology, Emergency Medicine",https://www.asklepios.com/stgeorg,7,8,21
HOSP-GER-00129,University Hospital Frankfurt,Frankfurt,Hesse,Germany,Europe,50.0955,8.6703,1348,1019,Very Large,75.59,Moderate,True,142,True,8,critical,Level 1,high,normal,108,12,"Cardiology, Obstetrics, Emergency Medicine, Orthopedics, Pediatrics, Surgery",https://www.kgu.de,9,7,43
HOSP-GER-00130,Krankenhaus Nordwest,Frankfurt,Hesse,Germany,Europe,50.1496,8.6261,590,421,Large,71.36,Moderate,True,40,True,3,high,Level 2,high,normal,86,17,"Internal Medicine, Cardiology, Ophthalmology",https://www.khnw.de,7,6,36
HOSP-SPA-00131,Hospital Clínic de Barcelona,Barcelona,Catalonia,Spain,Europe,41.3887,2.1527,769,598,Large,77.76,Moderate,True,54,True,5,critical,Level 2,medium,normal,108,12,"Ophthalmology, Radiology, Psychiatry",https://www.clinicbarcelona.org,10,4,44
HOSP-SPA-00132,Hospital de la Santa Creu i Sant Pau,Barcelona,Catalonia,Spain,Europe,41.4143,2.1748,644,533,Large,82.76,Moderate,True,82,True,4,critical,Level 2,high,normal,55,12,"Ophthalmology, Oncology, Orthopedics",https://www.santpau.cat,8,7,38
HOSP-SPA-00133,Hospital Vall d'Hebron,Barcelona,Catalonia,Spain,Europe,41.427,2.1442,1200,1022,Very Large,85.17,High,True,144,True,8,critical,Level 2,low,alert,116,20,"Radiology, Internal Medicine, Neurology, Obstetrics, Pediatrics, Cardiology",https://www.vallhebron.com,7,4,18
HOSP-SPA-00134,Hospital del Mar,Barcelona,Catalonia,Spain,Europe,41.3858,2.1952,420,352,Medium,83.81,Moderate,True,52,True,2,high,,medium,alert,73,25,"Radiology, Pediatrics, Orthopedics",https://www.parcdesalutmar.cat,10,6,15
HOSP-ITA-00135,Ospedale Maggiore Policlinico,Milan,Lombardy,Italy,Europe,45.4656,9.1899,900,722,Large,80.22,Moderate,True,45,True,6,medium,Level 1,high,normal,76,8,"Gynecology, Pediatrics, Neurology, Obstetrics",https://www.policlinico.mi.it,8,4,13
HOSP-ITA-00136,Ospedale San Raffaele,Milan,Lombardy,Italy,Europe,45.4947,9.2644,1318,895,Very Large,67.91,Low,True,94,True,8,high,Level 1,low,normal,19,13,"Psychiatry, Cardiology, Orthopedics, Internal Medicine, Surgery, Emergency Medicine",https://www.hsr.it,6,8,15
HOSP-ITA-00137,Ospedale Niguarda,Milan,Lombardy,Italy,Europe,45.5167,9.1808,1034,701,Very Large,67.79,Low,True,55,True,6,high,Level 1,medium,normal,50,14,"Neurology, Radiology, Orthopedics, Psychiatry, Pediatrics",https://www.ospedaleniguarda.it,9,4,18
HOSP-ITA-00138,Istituto Europeo di Oncologia,Milan,Lombardy,Italy,Europe,45.4943,9.2114,161,148,Small,91.93,High,True,20,True,2,medium,,medium,overload,148,21,"Ophthalmology, Obstetrics, Surgery",https://www.ieo.it,9,4,42
HOSP-ITA-00139,Azienda Ospedaliera Cardarelli,Naples,Campania,Italy,Europe,40.869,14.2492,1100,764,Very Large,69.45,Low,True,59,True,7,critical,Level 2,critical,normal,201,16,"Gynecology, Radiology, Pediatrics, Psychiatry, Obstetrics",https://www.ospedalecardarelli.it,7,5,14
HOSP-ITA-00140,University Hospital Federico II,Naples,Campania,Italy,Europe,40.8387,14.2167,742,505,Large,68.06,Low,True,82,True,4,critical,Level 1,medium,normal,53,17,"Surgery, Psychiatry, Ophthalmology",https://www.policlinico.unina.it,8,6,12
HOSP-NET-00141,Erasmus MC,Rotterdam,South Holland,Netherlands,Europe,51.9107,4.4697,1321,1058,Very Large,80.09,Moderate,True,105,True,8,high,Level 1,high,alert,110,22,"Internal Medicine, Pediatrics, Neurology, Ophthalmology, Anesthesiology, Cardiology",https://www.erasmusmc.nl,7,7,33
HOSP-NET-00142,Maasstad Hospital,Rotterdam,South Holland,Netherlands,Europe,51.9064,4.4679,601,448,Large,74.54,Moderate,True,66,True,4,medium,Level 2,critical,normal,168,11,"Gynecology, Surgery, Orthopedics",https://www.maasstadziekenhuis.nl,9,7,22
HOSP-BEL-00143,Cliniques Universitaires Saint-Luc,Brussels,Brussels,Belgium,Europe,50.8496,4.3698,973,660,Large,67.83,Low,True,97,True,6,high,Level 2,medium,normal,56,11,"Pediatrics, Cardiology, Ophthalmology, Dermatology",https://www.saintluc.be,8,6,44
HOSP-BEL-00144,Erasme Hospital,Brussels,Brussels,Belgium,Europe,50.8163,4.2613,858,633,Large,73.78,Moderate,True,118,True,5,high,Level 1,medium,normal,57,24,"Dermatology, Orthopedics, Pediatrics, Gynecology",https://www.erasme.ulb.ac.be,6,4,43
HOSP-BEL-00145,UZ Brussel,Brussels,Brussels,Belgium,Europe,50.8908,4.3174,721,524,Large,72.68,Moderate,True,71,True,4,medium,Level 2,medium,normal,39,9,"Cardiology, Oncology, Pediatrics",https://www.uzbrussel.be,7,4,41
HOSP-AUS-00146,Vienna General Hospital,Vienna,Vienna,Austria,Europe,48.2208,16.3569,2145,1522,Very Large,70.96,Moderate,True,146,True,14,critical,Level 2,low,normal,13,21,"Pediatrics, Surgery, Anesthesiology, Emergency Medicine, Orthopedics, Psychiatry, Gynecology, Dermatology, Oncology, Neurology",https://www.akhwien.at,6,4,13
HOSP-AUS-00147,Hanusch Hospital,Vienna,Vienna,Austria,Europe,48.2084,16.3336,517,441,Large,85.3,High,True,74,True,3,critical,Level 3,high,normal,106,10,"Psychiatry, Emergency Medicine, Orthopedics",https://www.wgkk.at/hanusch,8,7,41
HOSP-POL-00148,Central Clinical Hospital,Warsaw,Masovian,Poland,Europe,52.2157,20.9818,700,631,Large,90.14,High,True,93,True,4,high,Level 2,medium,overload,103,23,"Oncology, Obstetrics, Anesthesiology",https://www.cskmswia.pl,9,6,32
HOSP-POL-00149,Medical University of Warsaw Hospital,Warsaw,Masovian,Poland,Europe,52.2315,20.9925,1200,1086,Very Large,90.5,High,True,117,True,8,high,Level 1,medium,alert,101,12,"Emergency Medicine, Cardiology, Psychiatry, Obstetrics, Internal Medicine, Surgery",https://www.wum.edu.pl,7,6,12
HOSP-CZE-00150,General University Hospital in Prague,Prague,Prague,Czech Republic,Other,50.0693,14.4292,1820,1664,Very Large,91.43,High,True,194,True,12,critical,Level 1,low,overload,143,21,"Neurology, Cardiology, Psychiatry, Obstetrics, Radiology, Pediatrics, Anesthesiology, Gynecology, Ophthalmology",https://www.vfn.cz,9,5,38
HOSP-CZE-00151,Motol University Hospital,Prague,Prague,Czech Republic,Other,50.0705,14.3011,2360,1703,Very Large,72.16,Moderate,True,332,True,15,critical,Level 1,high,normal,79,14,"Emergency Medicine, Pediatrics, Ophthalmology, Neurology, Internal Medicine, Radiology, Anesthesiology, Psychiatry, Obstetrics, Gynecology, Orthopedics",https://www.fnmotol.cz,6,7,24
HOSP-DEN-00152,Rigshospitalet,Copenhagen,Capital Region,Denmark,Europe,55.6958,12.5689,1100,969,Very Large,88.09,High,True,57,True,7,critical,Level 1,high,alert,104,11,"Neurology, Pediatrics, Cardiology, Surgery, Oncology",https://www.rigshospitalet.dk,7,4,17
HOSP-DEN-00153,Herlev Hospital,Copenhagen,Capital Region,Denmark,Europe,55.7303,12.4416,633,518,Large,81.83,Moderate,True,73,True,4,high,Level 3,critical,alert,214,19,"Cardiology, Surgery, Dermatology",https://www.herlevhospital.dk,8,7,26
HOSP-NOR-00154,Oslo University Hospital,Oslo,Oslo,Norway,Europe,59.9227,10.7196,1700,1182,Very Large,69.53,Low,True,241,True,11,high,Level 1,medium,normal,58,23,"Internal Medicine, Surgery, Cardiology, Psychiatry, Anesthesiology, Pediatrics, Emergency Medicine, Neurology",https://www.oslo-universitetssykehus.no,7,9,29
HOSP-NOR-00155,Diakonhjemmet Hospital,Oslo,Oslo,Norway,Europe,59.9295,10.7089,385,269,Medium,69.87,Low,True,28,True,2,high,,medium,normal,34,18,"Dermatology, Internal Medicine, Psychiatry",https://www.diakonhjemmetsykehus.no,8,4,37
HOSP-FIN-00156,Helsinki University Hospital,Helsinki,Uusimaa,Finland,Other,60.2201,24.973,1800,1365,Very Large,75.83,Moderate,True,220,True,12,critical,Level 1,medium,normal,83,10,"Obstetrics, Emergency Medicine, Internal Medicine, Gynecology, Anesthesiology, Neurology, Pediatrics, Orthopedics, Dermatology",https://www.hus.fi,6,5,38
HOSP-RUS-00157,Moscow City Clinical Hospital No. 1,Moscow,Moscow,Russia,Other,55.7658,37.6753,1200,1007,Very Large,83.92,Moderate,True,164,True,8,critical,Level 2,high,alert,62,15,"Radiology, Oncology, Emergency Medicine, Internal Medicine, Cardiology, Anesthesiology",https://www.gkb1.ru,10,7,36
HOSP-RUS-00158,Pirogov National Medical Surgical Center,Moscow,Moscow,Russia,Other,55.7558,37.6173,850,554,Large,65.18,Low,True,97,True,5,high,Level 2,low,normal,26,15,"Gynecology, Surgery, Cardiology, Radiology",https://www.pirogov-center.ru,9,8,32
HOSP-CHI-00159,Peking Union Medical College Hospital,Beijing,Beijing,China,Asia,39.9138,116.4074,2000,1416,Very Large,70.8,Moderate,True,256,True,13,high,Level 1,medium,normal,56,14,"Orthopedics, Gynecology, Surgery, Ophthalmology, Obstetrics, Cardiology, Radiology, Dermatology, Internal Medicine, Anesthesiology",https://www.pumch.cn,8,9,29
HOSP-CHI-00160,Peking University First Hospital,Beijing,Beijing,China,Asia,39.9287,116.3841,1800,1431,Very Large,79.5,Moderate,True,143,True,12,high,Level 1,high,normal,91,14,"Gynecology, Orthopedics, Cardiology, Emergency Medicine, Obstetrics, Internal Medicine, Pediatrics, Ophthalmology, Surgery",https://www.bddyyy.com.cn,6,8,40
HOSP-CHI-00161,Beijing Hospital,Beijing,Beijing,China,Asia,39.9154,116.4074,1500,1070,Very Large,71.33,Moderate,True,176,True,10,critical,Level 2,high,normal,117,19,"Obstetrics, Surgery, Gynecology, Dermatology, Oncology, Internal Medicine, Emergency Medicine",https://www.bjhmoh.cn,7,4,37
HOSP-CHI-00162,Guangdong General Hospital,Guangzhou,Guangdong,China,Asia,23.1383,113.2704,2400,1975,Very Large,82.29,Moderate,True,340,True,16,critical,Level 2,high,alert,113,23,"Emergency Medicine, Dermatology, Pediatrics, Oncology, Ophthalmology, Radiology, Cardiology, Obstetrics, Neurology, Anesthesiology, Psychiatry, Gynecology",https://www.gdghospital.org.cn,6,6,27
HOSP-CHI-00163,Sun Yat-sen Memorial Hospital,Guangzhou,Guangdong,China,Asia,23.1193,113.2881,1400,1049,Very Large,74.93,Moderate,True,198,True,9,critical,Level 2,medium,normal,40,11,"Obstetrics, Emergency Medicine, Psychiatry, Oncology, Radiology, Neurology, Surgery",https://www.syshospital.com,7,9,12
HOSP-JAP-00164,Osaka University Hospital,Osaka,Osaka,Japan,Asia,34.6937,135.5022,1086,973,Very Large,89.59,High,True,64,True,7,high,Level 1,low,alert,170,11,"Radiology, Cardiology, Anesthesiology, Emergency Medicine, Dermatology",https://www.hosp.med.osaka-u.ac.jp,9,9,21
HOSP-JAP-00165,Osaka Medical Center,Osaka,Osaka,Japan,Asia,34.7024,135.4958,698,504,Large,72.21,Moderate,True,70,True,4,high,Level 1,medium,normal,44,18,"Dermatology, Obstetrics, Surgery",https://www.onh.go.jp,8,5,32
HOSP-JAP-00166,Kyoto University Hospital,Kyoto,Kyoto,Japan,Asia,35.0269,135.7671,1121,1002,Very Large,89.38,High,True,66,True,7,high,Level 2,medium,alert,184,20,"Gynecology, Obstetrics, Internal Medicine, Surgery, Pediatrics",https://www.kuhp.kyoto-u.ac.jp,8,9,15
HOSP-SOU-00167,Pusan National University Hospital,Busan,Busan,South Korea,Asia,35.1164,129.0411,1300,1179,Very Large,90.69,High,True,192,True,8,high,Level 1,medium,overload,111,18,"Cardiology, Pediatrics, Oncology, Internal Medicine, Emergency Medicine, Ophthalmology",https://www.pnuh.or.kr,7,6,39
HOSP-SOU-00168,Dong-A University Hospital,Busan,Busan,South Korea,Asia,35.1045,129.0256,911,686,Large,75.3,Moderate,True,54,True,6,high,Level 1,low,normal,111,13,"Dermatology, Ophthalmology, Cardiology, Oncology",https://www.damc.or.kr,6,9,31
HOSP-TAI-00169,National Taiwan University Hospital,Taipei,Taipei,Taiwan,Other,25.0415,121.5195,2200,1916,Very Large,87.09,High,True,253,True,14,high,Level 1,medium,alert,234,12,"Cardiology, Emergency Medicine, Pediatrics, Oncology, Internal Medicine, Dermatology, Neurology, Ophthalmology, Gynecology, Psychiatry, Surgery",https://www.ntuh.gov.tw,6,4,11
HOSP-TAI-00170,Taipei Veterans General Hospital,Taipei,Taipei,Taiwan,Other,25.1186,121.5191,2900,1992,Very Large,68.69,Low,True,331,True,19,critical,Level 1,medium,normal,59,13,"Radiology, Surgery, Anesthesiology, Gynecology, Obstetrics, Orthopedics, Neurology, Emergency Medicine, Internal Medicine, Psychiatry, Pediatrics, Ophthalmology, Cardiology, Dermatology",https://www.vghtpe.gov.tw,8,4,39
HOSP-TAI-00171,Chang Gung Memorial Hospital,Taipei,Taipei,Taiwan,Other,25.0585,121.5178,3700,3307,Very Large,89.38,High,True,385,True,24,critical,Level 1,high,alert,121,14,"Internal Medicine, Radiology, Pediatrics, Orthopedics, Cardiology, Ophthalmology, Anesthesiology, Dermatology, Neurology, Oncology, Psychiatry, Obstetrics, Surgery, Emergency Medicine, Gynecology",https://www.cgmh.org.tw,6,4,10
HOSP-HON-00172,Queen Mary Hospital,Hong Kong,Hong Kong,Hong Kong,Other,22.2702,114.1342,1440,1263,Very Large,87.71,High,True,136,True,9,critical,Level 1,medium,alert,134,22,"Dermatology, Psychiatry, Surgery, Pediatrics, Emergency Medicine, Internal Medicine, Gynecology",https://www.ha.org.hk/qmh,6,9,10
HOSP-HON-00173,Queen Elizabeth Hospital,Hong Kong,Hong Kong,Hong Kong,Other,22.3084,114.1745,1900,1633,Very Large,85.95,High,True,250,True,12,high,Level 2,high,alert,212,9,"Anesthesiology, Orthopedics, Neurology, Radiology, Surgery, Gynecology, Obstetrics, Internal Medicine, Ophthalmology",https://www.ha.org.hk/qeh,10,4,35
HOSP-HON-00174,Prince of Wales Hospital,Hong Kong,Hong Kong,Hong Kong,Other,22.3757,114.2048,1456,1126,Very Large,77.34,Moderate,True,77,True,9,high,Level 2,critical,normal,173,19,"Gynecology, Internal Medicine, Emergency Medicine, Anesthesiology, Surgery, Dermatology, Ophthalmology",https://www.ha.org.hk/pwh,10,8,16
HOSP-THA-00175,Siriraj Hospital,Bangkok,Bangkok,Thailand,Asia,13.7563,100.4881,2300,1805,Very Large,78.48,Moderate,True,121,True,15,high,Level 2,critical,normal,203,24,"Dermatology, Anesthesiology, Psychiatry, Internal Medicine, Orthopedics, Neurology, Obstetrics, Radiology, Emergency Medicine, Oncology, Pediatrics",https://www2.si.mahidol.ac.th,9,4,19
HOSP-THA-00176,Chulalongkorn Hospital,Bangkok,Bangkok,Thailand,Asia,13.7352,100.5318,1400,1067,Very Large,76.21,Moderate,True,195,True,9,critical,Level 1,high,normal,63,16,"Orthopedics, Surgery, Cardiology, Psychiatry, Anesthesiology, Obstetrics, Pediatrics",https://www.chulamedicine.org,10,6,42
HOSP-THA-00177,Bumrungrad International Hospital,Bangkok,Bangkok,Thailand,Asia,13.7446,100.5608,580,488,Large,84.14,Moderate,True,31,True,3,medium,Level 2,low,normal,49,12,"Gynecology, Neurology, Internal Medicine",https://www.bumrungrad.com,8,9,39
HOSP-THA-00178,Bangkok Hospital,Bangkok,Bangkok,Thailand,Asia,13.7513,100.5469,554,400,Large,72.2,Moderate,True,46,True,3,critical,Level 2,high,normal,91,16,"Anesthesiology, Dermatology, Internal Medicine",https://www.bangkokhospital.com,7,5,24
HOSP-MAL-00179,Hospital Kuala Lumpur,Kuala Lumpur,Federal Territory,Malaysia,Asia,3.1673,101.7061,2300,1865,Very Large,81.09,Moderate,True,259,True,15,high,Level 2,low,normal,64,14,"Radiology, Anesthesiology, Oncology, Pediatrics, Surgery, Orthopedics, Psychiatry, Dermatology, Cardiology, Gynecology, Obstetrics",https://www.hkl.gov.my,7,7,36
HOSP-MAL-00180,Gleneagles Hospital Kuala Lumpur,Kuala Lumpur,Federal Territory,Malaysia,Asia,3.1645,101.6732,330,288,Medium,87.27,High,True,42,True,2,medium,,medium,alert,237,14,"Anesthesiology, Obstetrics, Emergency Medicine",https://www.gleneagles.com.my,10,8,31
HOSP-MAL-00181,Prince Court Medical Centre,Kuala Lumpur,Federal Territory,Malaysia,Asia,3.1412,101.7051,270,240,Medium,88.89,High,True,21,True,2,high,Level 2,high,normal,90,20,"Oncology, Ophthalmology, Surgery",https://www.princecourt.com,8,7,26
HOSP-PHI-00182,Philippine General Hospital,Manila,Metro Manila,Philippines,Asia,14.5794,120.9869,1500,1155,Very Large,77.0,Moderate,True,214,True,10,critical,Level 1,high,normal,58,8,"Radiology, Obstetrics, Orthopedics, Neurology, Oncology, Gynecology, Ophthalmology",https://www.pgh.gov.ph,8,5,36
HOSP-PHI-00183,St. Luke's Medical Center,Manila,Metro Manila,Philippines,Asia,14.5547,121.0493,650,458,Large,70.46,Moderate,True,65,True,4,medium,Level 1,medium,normal,47,11,"Internal Medicine, Surgery, Psychiatry",https://www.stluke.com.ph,9,5,24
HOSP-PHI-00184,Makati Medical Center,Manila,Metro Manila,Philippines,Asia,14.5547,121.0244,600,473,Large,78.83,Moderate,True,47,True,4,medium,Level 2,critical,normal,164,23,"Ophthalmology, Surgery, Neurology",https://www.makatimed.net.ph,9,5,36
HOSP-IND-00185,Cipto Mangunkusumo Hospital,Jakarta,Jakarta,Indonesia,Asia,-6.1862,106.831,1400,1188,Very Large,84.86,Moderate,True,100,True,9,critical,Level 2,medium,normal,87,25,"Cardiology, Neurology, Gynecology, Pediatrics, Psychiatry, Radiology, Orthopedics",https://www.rscm.co.id,9,6,10
HOSP-IND-00186,Harapan Kita National Heart Center,Jakarta,Jakarta,Indonesia,Asia,-6.1851,106.7833,330,237,Medium,71.82,Moderate,True,46,True,2,medium,Level 3,high,normal,75,11,"Radiology, Psychiatry, Emergency Medicine",https://www.jantung.or.id,8,5,18
HOSP-IND-00187,Siloam Hospitals Lippo Village,Jakarta,Jakarta,Indonesia,Asia,-6.2527,106.6199,350,306,Medium,87.43,High,True,35,True,2,medium,Level 3,low,alert,193,8,"Anesthesiology, Gynecology, Ophthalmology",https://www.siloamhospitals.com,10,8,19
HOSP-IND-00188,All India Institute of Medical Sciences,Delhi,Delhi,India,Asia,28.5672,77.21,2478,2119,Very Large,85.51,High,True,340,True,16,high,Level 2,high,alert,134,15,"Psychiatry, Ophthalmology, Anesthesiology, Emergency Medicine, Obstetrics, Pediatrics, Radiology, Oncology, Dermatology, Surgery, Internal Medicine, Orthopedics",https://www.aiims.edu,7,6,18
HOSP-IND-00189,Safdarjung Hospital,Delhi,Delhi,India,Asia,28.5699,77.2074,1682,1520,Very Large,90.37,High,True,181,True,11,critical,Level 1,low,overload,172,16,"Gynecology, Cardiology, Pediatrics, Obstetrics, Emergency Medicine, Neurology, Orthopedics, Radiology",https://www.vmmc-sjh.nic.in,7,6,29
HOSP-IND-00190,Apollo Hospital Delhi,Delhi,Delhi,India,Asia,28.5412,77.2722,710,607,Large,85.49,High,True,66,True,4,critical,Level 2,high,normal,231,16,"Psychiatry, Neurology, Oncology",https://www.apollohospitalsdelhi.com,6,9,10
HOSP-IND-00191,Fortis Escorts Heart Institute,Delhi,Delhi,India,Asia,28.5926,77.2124,310,206,Medium,66.45,Low,True,34,True,2,medium,Level 3,high,normal,111,15,"Ophthalmology, Obstetrics, Orthopedics",https://www.fortisescorts.in,6,5,26
HOSP-IND-00192,Nimhans,Bangalore,Karnataka,India,Asia,12.9433,77.5959,800,620,Large,77.5,Moderate,True,117,True,5,medium,Level 1,high,normal,111,11,"Emergency Medicine, Obstetrics, Gynecology, Oncology",https://www.nimhans.ac.in,8,6,30
HOSP-IND-00193,Manipal Hospital,Bangalore,Karnataka,India,Asia,12.9698,77.6457,650,506,Large,77.85,Moderate,True,55,True,4,medium,Level 2,medium,normal,70,24,"Radiology, Anesthesiology, Dermatology",https://www.manipalhospitals.com/bangalore,9,4,26
HOSP-IND-00194,Apollo Hospital Bangalore,Bangalore,Karnataka,India,Asia,12.9126,77.6339,250,203,Medium,81.2,Moderate,True,31,True,2,medium,Level 2,medium,normal,106,22,"Surgery, Pediatrics, Psychiatry",https://www.apollohospitals.com/bangalore,10,7,39
HOSP-IND-00195,Apollo Hospital Chennai,Chennai,Tamil Nadu,India,Asia,13.0569,80.2422,550,386,Large,70.18,Moderate,True,52,True,3,high,Level 3,high,normal,82,13,"Internal Medicine, Psychiatry, Orthopedics",https://www.apollohospitals.com/chennai,6,6,39
HOSP-IND-00196,Christian Medical College Vellore,Chennai,Tamil Nadu,India,Asia,12.9262,79.1344,2698,1818,Very Large,67.38,Low,True,375,True,17,critical,Level 1,critical,normal,209,10,"Obstetrics, Neurology, Gynecology, Psychiatry, Radiology, Surgery, Pediatrics, Oncology, Emergency Medicine, Anesthesiology, Cardiology, Internal Medicine, Ophthalmology",https://www.cmch-vellore.edu,6,7,25
HOSP-IND-00197,Fortis Malar Hospital,Chennai,Tamil Nadu,India,Asia,13.0606,80.252,180,122,Small,67.78,Low,True,18,True,2,medium,Level 5,medium,normal,31,18,"Emergency Medicine, Gynecology, Obstetrics",https://www.fortismalar.com,7,4,16
HOSP-PAK-00198,Aga Khan University Hospital,Karachi,Sindh,Pakistan,Other,24.8903,67.0721,710,604,Large,85.07,High,True,55,True,4,medium,Level 2,high,normal,232,23,"Obstetrics, Orthopedics, Pediatrics",https://www.aku.edu/akuh,10,4,24
HOSP-PAK-00199,Jinnah Postgraduate Medical Centre,Karachi,Sindh,Pakistan,Other,24.8765,67.0351,1400,1072,Very Large,76.57,Moderate,True,160,True,9,critical,Level 2,medium,normal,85,16,"Gynecology, Oncology, Ophthalmology, Orthopedics, Emergency Medicine, Neurology, Cardiology",https://www.jpmc.edu.pk,6,7,12
HOSP-BAN-00200,Dhaka Medical College Hospital,Dhaka,Dhaka,Bangladesh,Other,23.7261,90.3987,2600,2389,Very Large,91.88,High,True,362,True,17,high,Level 2,medium,alert,173,12,"Obstetrics, Surgery, Oncology, Psychiatry, Dermatology, Cardiology, Ophthalmology, Emergency Medicine, Pediatrics, Internal Medicine, Neurology, Orthopedics, Radiology",https://www.dmch.gov.bd,6,6,16
HOSP-BAN-00201,Bangabandhu Sheikh Mujib Medical University,Dhaka,Dhaka,Bangladesh,Other,23.7386,90.3948,1850,1513,Very Large,81.78,Moderate,True,126,True,12,high,Level 1,high,alert,111,14,"Surgery, Dermatology, Oncology, Cardiology, Psychiatry, Gynecology, Obstetrics, Radiology, Internal Medicine",https://www.bsmmu.edu.bd,6,9,42
HOSP-AUS-00202,Royal Melbourne Hospital,Melbourne,Victoria,Australia,Oceania,-37.7993,144.9554,550,431,Large,78.36,Moderate,True,46,True,3,high,Level 3,high,normal,104,24,"Oncology, Ophthalmology, Pediatrics",https://www.thermh.org.au,7,7,21
HOSP-AUS-00203,Alfred Hospital,Melbourne,Victoria,Australia,Oceania,-37.8471,144.9816,920,617,Large,67.07,Low,True,108,True,6,high,Level 3,medium,normal,49,24,"Internal Medicine, Oncology, Obstetrics, Orthopedics",https://www.alfredhealth.org.au,10,7,28
HOSP-AUS-00204,Monash Medical Centre,Melbourne,Victoria,Australia,Oceania,-37.9228,145.1372,640,477,Large,74.53,Moderate,True,88,True,4,critical,Level 3,high,normal,94,23,"Obstetrics, Radiology, Oncology",https://www.monashhealth.org,8,4,13
HOSP-AUS-00205,Royal Brisbane and Women's Hospital,Brisbane,Queensland,Australia,Oceania,-27.448,153.0285,929,750,Large,80.73,Moderate,True,60,True,6,high,Level 3,low,normal,62,24,"Dermatology, Pediatrics, Ophthalmology, Internal Medicine",https://www.health.qld.gov.au/rbwh,9,4,35
HOSP-AUS-00206,Princess Alexandra Hospital,Brisbane,Queensland,Australia,Oceania,-27.4999,153.0306,738,492,Large,66.67,Low,True,109,True,4,critical,Level 1,critical,normal,98,22,"Pediatrics, Anesthesiology, Internal Medicine",https://www.health.qld.gov.au/metrosouthhealth/pah,7,7,27
HOSP-NEW-00207,Auckland City Hospital,Auckland,Auckland,New Zealand,Oceania,-36.8602,174.768,640,564,Large,88.12,High,True,48,True,4,high,Level 2,medium,normal,126,20,"Oncology, Orthopedics, Emergency Medicine",https://www.adhb.health.nz,6,9,18
HOSP-NEW-00208,Middlemore Hospital,Auckland,Auckland,New Zealand,Oceania,-37.0086,174.8967,800,578,Large,72.25,Moderate,True,60,True,5,critical,Level 1,medium,normal,38,16,"Oncology, Gynecology, Cardiology, Psychiatry",https://www.countiesmanukau.health.nz,8,9,13
HOSP-NEW-00209,Wellington Regional Hospital,Wellington,Wellington,New Zealand,Oceania,-41.3092,174.7791,500,378,Large,75.6,Moderate,True,40,True,3,high,Level 3,medium,normal,85,22,"Oncology, Obstetrics, Psychiatry",https://www.ccdhb.org.nz/our-services/hospitals-and-specialist-centres/wellington-regional-hospital,8,8,38
HOSP-SOU-00210,Groote Schuur Hospital,Cape Town,Western Cape,South Africa,Africa,-33.9408,18.4625,973,814,Large,83.66,Moderate,True,56,True,6,high,Level 1,medium,normal,105,9,"Dermatology, Anesthesiology, Internal Medicine, Obstetrics",https://www.westerncape.gov.za/gsh,8,6,37
HOSP-SOU-00211,Tygerberg Hospital,Cape Town,Western Cape,South Africa,Africa,-33.8919,18.6304,1384,1139,Very Large,82.3,Moderate,True,159,True,9,critical,Level 1,low,normal,86,11,"Oncology, Radiology, Orthopedics, Obstetrics, Dermatology, Internal Medicine",https://www.westerncape.gov.za/tygerberg,7,5,16
HOSP-SOU-00212,Mediclinic Cape Town,Cape Town,Western Cape,South Africa,Africa,-33.9388,18.465,243,211,Medium,86.83,High,True,30,True,2,high,Level 3,medium,normal,112,15,"Neurology, Anesthesiology, Emergency Medicine",https://www.mediclinic.co.za/capetown,6,9,31
HOSP-SOU-00213,Inkosi Albert Luthuli Central Hospital,Durban,KwaZulu-Natal,South Africa,Africa,-29.8468,31.0144,846,697,Large,82.39,Moderate,True,110,True,5,medium,Level 2,medium,alert,59,16,"Anesthesiology, Neurology, Emergency Medicine, Internal Medicine",https://www.kznhealth.gov.za/ialch.htm,10,4,23
HOSP-SOU-00214,Addington Hospital,Durban,KwaZulu-Natal,South Africa,Africa,-29.8692,31.0304,509,347,Large,68.17,Low,True,37,True,3,medium,Level 1,critical,normal,199,15,"Ophthalmology, Pediatrics, Surgery",https://www.kznhealth.gov.za/addingtonhospital.htm,6,6,22
HOSP-KEN-00215,Kenyatta National Hospital,Nairobi,Nairobi,Kenya,Africa,-1.3006,36.8073,1800,1303,Very Large,72.39,Moderate,True,236,True,12,high,Level 1,critical,normal,146,18,"Psychiatry, Oncology, Dermatology, Orthopedics, Obstetrics, Gynecology, Radiology, Surgery, Emergency Medicine",https://www.knh.or.ke,9,7,34
HOSP-KEN-00216,Aga Khan University Hospital Nairobi,Nairobi,Nairobi,Kenya,Africa,-1.2717,36.8071,254,191,Medium,75.2,Moderate,True,26,True,2,high,Level 2,high,normal,59,22,"Pediatrics, Obstetrics, Cardiology",https://www.aku.edu/nairobi,6,4,35
HOSP-KEN-00217,Nairobi Hospital,Nairobi,Nairobi,Kenya,Africa,-1.2826,36.81,200,167,Medium,83.5,Moderate,True,13,True,2,low,,medium,alert,104,23,"Internal Medicine, Ophthalmology, Psychiatry",https://www.nairobihospital.org,6,7,20
HOSP-NIG-00218,Lagos University Teaching Hospital,Lagos,Lagos,Nigeria,Africa,6.4974,3.3804,761,606,Large,79.63,Moderate,True,52,True,5,high,Level 2,low,normal,114,10,"Oncology, Internal Medicine, Pediatrics",https://www.luth.gov.ng,9,9,40
HOSP-NIG-00219,Lagos State University Teaching Hospital,Lagos,Lagos,Nigeria,Africa,6.5568,3.3672,750,633,Large,84.4,Moderate,True,73,True,5,high,Level 3,low,normal,65,24,"Dermatology, Neurology, Surgery",https://www.lasuth.gov.ng,8,5,30
HOSP-NIG-00220,Reddington Hospital,Lagos,Lagos,Nigeria,Africa,6.4478,3.4109,120,97,Small,80.83,Moderate,False,0,False,2,low,Level 4,medium,normal,48,25,"Psychiatry, Anesthesiology, Internal Medicine",https://www.reddingtonhospital.com,7,4,23
HOSP-GHA-00221,Korle Bu Teaching Hospital,Accra,Greater Accra,Ghana,Other,5.5373,-0.2266,2000,1715,Very Large,85.75,High,True,268,True,13,high,Level 1,medium,normal,213,8,"Ophthalmology, Obstetrics, Oncology, Radiology, Gynecology, Pediatrics, Neurology, Surgery, Dermatology, Orthopedics",https://www.kbth.gov.gh,9,6,26
HOSP-GHA-00222,37 Military Hospital,Accra,Greater Accra,Ghana,Other,5.6037,-0.187,500,458,Large,91.6,High,True,41,True,3,medium,Level 2,medium,overload,110,11,"Oncology, Pediatrics, Gynecology",https://www.37militaryhospital.org,8,7,35
HOSP-ETH-00223,Tikur Anbessa Hospital,Addis Ababa,Addis Ababa,Ethiopia,Other,9.0366,38.7635,700,464,Large,66.29,Low,True,103,True,4,critical,Level 2,high,normal,91,18,"Obstetrics, Ophthalmology, Orthopedics",https://www.aau.edu.et/tash,7,8,13
HOSP-ETH-00224,St. Paul's Hospital Millennium Medical College,Addis Ababa,Addis Ababa,Ethiopia,Other,8.9984,38.7592,700,569,Large,81.29,Moderate,True,80,True,4,critical,Level 3,high,normal,64,20,"Anesthesiology, Ophthalmology, Dermatology",https://www.sphmmc.edu.et,9,4,19
HOSP-MOR-00225,CHU Ibn Rochd,Casablanca,Casablanca-Settat,Morocco,Africa,33.5833,-7.6167,1200,1013,Very Large,84.42,Moderate,True,72,True,8,critical,Level 1,high,normal,61,15,"Oncology, Anesthesiology, Psychiatry, Obstetrics, Internal Medicine, Surgery",https://www.chu-ibnrochd.ma,6,9,13
HOSP-MOR-00226,Clinique Badr,Casablanca,Casablanca-Settat,Morocco,Africa,33.5925,-7.6192,100,82,Small,82.0,Moderate,False,0,True,2,medium,Level 4,medium,normal,49,19,"Oncology, Orthopedics, Radiology",https://www.cliniquebadr.ma,8,9,40
HOSP-ISR-00227,Tel Aviv Sourasky Medical Center,Tel Aviv,Tel Aviv,Israel,Other,32.0743,34.7911,1500,1036,Very Large,69.07,Low,True,209,True,10,high,Level 1,low,normal,16,11,"Internal Medicine, Emergency Medicine, Gynecology, Radiology, Psychiatry, Dermatology, Ophthalmology",https://www.tasmc.org.il,7,6,26
HOSP-ISR-00228,Sheba Medical Center,Tel Aviv,Tel Aviv,Israel,Other,32.0582,34.8017,1990,1394,Very Large,70.05,Moderate,True,138,True,13,critical,Level 2,medium,normal,49,9,"Radiology, Ophthalmology, Anesthesiology, Orthopedics, Gynecology, Neurology, Psychiatry, Surgery, Oncology",https://www.shebaonline.org,9,6,12
HOSP-ISR-00229,Hadassah Medical Center,Jerusalem,Jerusalem,Israel,Other,31.7974,35.1415,1000,872,Very Large,87.2,High,True,116,True,6,high,Level 2,medium,alert,201,14,"Ophthalmology, Neurology, Pediatrics, Dermatology, Cardiology",https://www.hadassah.org.il,8,4,18
HOSP-TUR-00230,Istanbul University Cerrahpaşa Hospital,Istanbul,Istanbul,Turkey,Other,41.0015,28.9439,1200,802,Very Large,66.83,Low,True,125,True,8,critical,Level 1,medium,normal,38,22,"Radiology, Ophthalmology, Anesthesiology, Oncology, Cardiology, Neurology",https://www.cerrahpasa.istanbul.edu.tr,8,6,27
HOSP-TUR-00231,American Hospital Istanbul,Istanbul,Istanbul,Turkey,Other,41.0726,29.0333,230,150,Medium,65.22,Low,True,18,True,2,high,Level 3,low,normal,28,10,"Gynecology, Obstetrics, Dermatology",https://www.americanhospital.org,7,7,20
HOSP-TUR-00232,Acıbadem Maslak Hospital,Istanbul,Istanbul,Turkey,Other,41.1098,29.0198,201,178,Medium,88.56,High,True,19,True,2,medium,Level 2,medium,normal,130,21,"Emergency Medicine, Orthopedics, Neurology",https://www.acibadem.com.tr,6,8,13
HOSP-TUR-00233,Ankara University Faculty of Medicine Hospital,Ankara,Ankara,Turkey,Other,39.9334,32.8597,1200,850,Very Large,70.83,Moderate,True,91,True,8,critical,Level 2,medium,normal,29,16,"Orthopedics, Internal Medicine, Radiology, Anesthesiology, Surgery, Neurology",https://www.medicine.ankara.edu.tr,7,5,33
HOSP-TUR-00234,Hacettepe University Hospitals,Ankara,Ankara,Turkey,Other,39.8629,32.7338,1400,1204,Very Large,86.0,High,True,97,True,9,high,Level 2,low,normal,141,17,"Cardiology, Psychiatry, Neurology, Ophthalmology, Gynecology, Radiology, Dermatology",https://www.hastane.hacettepe.edu.tr,10,5,34
HOSP-SAU-00235,King Faisal Specialist Hospital,Riyadh,Riyadh,Saudi Arabia,Other,24.6866,46.6843,1100,949,Very Large,86.27,High,True,62,True,7,critical,Level 1,high,alert,179,25,"Ophthalmology, Neurology, Anesthesiology, Cardiology, Orthopedics",https://www.kfshrc.edu.sa,8,9,18
HOSP-SAU-00236,King Fahad Medical City,Riyadh,Riyadh,Saudi Arabia,Other,24.7581,46.6848,1295,996,Very Large,76.91,Moderate,True,180,True,8,critical,Level 2,low,normal,106,21,"Orthopedics, Internal Medicine, Obstetrics, Oncology, Ophthalmology, Gynecology",https://www.kfmc.med.sa,10,4,33
HOSP-SAU-00237,King Khalid University Hospital,Riyadh,Riyadh,Saudi Arabia,Other,24.7136,46.6753,850,583,Large,68.59,Low,True,71,True,5,high,Level 3,medium,normal,23,16,"Gynecology, Pediatrics, Dermatology, Psychiatry",https://www.kkuh.edu.sa,9,7,34
HOSP-SAU-00238,King Abdulaziz University Hospital,Jeddah,Makkah,Saudi Arabia,Other,21.5169,39.2006,870,719,Large,82.64,Moderate,True,97,True,5,critical,Level 1,high,normal,57,15,"Gynecology, Emergency Medicine, Oncology, Obstetrics",https://www.kauh.edu.sa,7,9,40
HOSP-SAU-00239,King Fahd General Hospital,Jeddah,Makkah,Saudi Arabia,Other,21.5429,39.1728,650,496,Large,76.31,Moderate,True,47,True,4,high,Level 1,medium,normal,80,11,"Anesthesiology, Cardiology, Radiology",https://www.kfgh.med.sa,9,7,33
HOSP-QAT-00240,Hamad General Hospital,Doha,Doha,Qatar,Other,25.2854,51.531,603,461,Large,76.45,Moderate,True,43,True,4,high,Level 2,medium,normal,103,19,"Ophthalmology, Oncology, Anesthesiology",https://www.hamad.qa/EN/Hospitals-and-services/Hamad-General-Hospital/Pages/default.aspx,6,8,23
HOSP-QAT-00241,Al Wakra Hospital,Doha,Doha,Qatar,Other,25.1698,51.6047,325,239,Medium,73.54,Moderate,True,43,True,2,medium,Level 3,high,normal,50,17,"Obstetrics, Orthopedics, Oncology",https://www.hamad.qa,10,8,41
HOSP-KUW-00242,Al-Amiri Hospital,Kuwait City,Kuwait,Kuwait,Other,29.3759,47.9916,500,331,Large,66.2,Low,True,55,True,3,high,Level 3,critical,normal,96,13,"Pediatrics, Emergency Medicine, Obstetrics",https://www.moh.gov.kw,7,7,21
HOSP-KUW-00243,Mubarak Al-Kabeer Hospital,Kuwait City,Kuwait,Kuwait,Other,29.2894,48.0838,678,441,Large,65.04,Low,True,76,True,4,high,Level 1,high,normal,65,24,"Oncology, Anesthesiology, Pediatrics",https://www.moh.gov.kw,7,6,42
HOSP-JOR-00244,Jordan University Hospital,Amman,Amman,Jordan,Other,32.0113,35.8717,600,416,Large,69.33,Low,True,39,True,4,high,Level 2,high,normal,113,14,"Pediatrics, Orthopedics, Surgery",https://www.juh.edu.jo,9,5,20
HOSP-JOR-00245,King Hussein Cancer Center,Amman,Amman,Jordan,Other,32.006,35.9031,260,203,Medium,78.08,Moderate,True,32,True,2,high,Level 2,high,normal,58,17,"Pediatrics, Emergency Medicine, Obstetrics",https://www.khcc.jo,8,7,24
HOSP-LEB-00246,American University of Beirut Medical Center,Beirut,Beirut,Lebanon,Other,33.9,35.4832,420,327,Medium,77.86,Moderate,True,53,True,2,medium,,high,normal,58,14,"Gynecology, Internal Medicine, Orthopedics",https://www.aubmc.org,9,4,33
HOSP-LEB-00247,Hotel-Dieu de France Hospital,Beirut,Beirut,Lebanon,Other,33.8897,35.5219,390,321,Medium,82.31,Moderate,True,26,True,2,high,,high,alert,64,20,"Surgery, Psychiatry, Gynecology",https://www.hdf.usj.edu.lb,10,8,38
HOSP-COL-00248,Fundación Santa Fe de Bogotá,Bogotá,Bogotá,Colombia,South America,4.6717,-74.0581,350,263,Medium,75.14,Moderate,True,45,True,2,high,,high,normal,111,18,"Internal Medicine, Radiology, Ophthalmology",https://www.fsfb.org.co,8,5,31
HOSP-COL-00249,Hospital Universitario San Ignacio,Bogotá,Bogotá,Colombia,South America,4.6285,-74.0641,350,293,Medium,83.71,Moderate,True,25,True,2,medium,Level 3,medium,normal,77,23,"Orthopedics, Emergency Medicine, Cardiology",https://www.husi.org.co,10,9,30
HOSP-COL-00250,Hospital San José,Bogotá,Bogotá,Colombia,South America,4.6097,-74.0817,460,380,Medium,82.61,Moderate,True,65,True,3,high,Level 2,high,alert,57,13,"Anesthesiology, Psychiatry, Dermatology",https://www.hospitaldesanjose.org.co,9,7,37
HOSP-PER-00251,Hospital Nacional Edgardo Rebagliati Martins,Lima,Lima,Peru,South America,-12.0847,-77.0348,1162,855,Very Large,73.58,Moderate,True,71,True,7,critical,Level 2,low,normal,26,23,"Emergency Medicine, Internal Medicine, Pediatrics, Psychiatry, Surgery",https://www.hnerm.gob.pe,8,9,41
HOSP-PER-00252,Hospital Guillermo Almenara Irigoyen,Lima,Lima,Peru,South America,-12.0582,-77.0392,870,668,Large,76.78,Moderate,True,112,True,5,high,Level 2,medium,normal,60,23,"Dermatology, Oncology, Ophthalmology, Obstetrics",https://www.hngai.gob.pe,10,9,34
HOSP-PER-00253,Clinica Anglo Americana,Lima,Lima,Peru,South America,-12.0881,-77.0309,80,62,Small,77.5,Moderate,True,7,True,2,low,,low,normal,110,13,"Gynecology, Psychiatry, Dermatology",https://www.angloamericana.com.pe,6,5,16
HOSP-VEN-00254,Hospital Universitario de Caracas,Caracas,Capital District,Venezuela,Other,10.4891,-66.8895,600,436,Large,72.67,Moderate,True,55,True,4,medium,Level 3,medium,normal,22,9,"Radiology, Cardiology, Neurology",https://www.huc.org.ve,10,8,34
HOSP-VEN-00255,Centro Médico de Caracas,Caracas,Capital District,Venezuela,Other,10.4876,-66.8486,276,201,Medium,72.83,Moderate,True,29,True,2,medium,Level 3,high,normal,47,12,"Internal Medicine, Cardiology, Dermatology",https://www.centromedicocaracas.com,10,9,38
HOSP-CAN-00256,McGill University Health Centre,Montreal,Quebec,Canada,North America,45.4954,-73.6106,1000,890,Very Large,89.0,High,True,93,True,6,high,Level 2,low,alert,225,10,"Psychiatry, Ophthalmology, Radiology, Emergency Medicine, Dermatology",https://www.muhc.ca,7,7,22
HOSP-CAN-00257,CHU Sainte-Justine,Montreal,Quebec,Canada,North America,45.5136,-73.6249,500,369,Large,73.8,Moderate,True,70,True,3,medium,,medium,normal,43,14,"Ophthalmology, Pediatrics, Emergency Medicine",https://www.chusj.org,7,4,34
HOSP-CAN-00258,Jewish General Hospital,Montreal,Quebec,Canada,North America,45.4987,-73.6345,637,560,Large,87.91,High,True,59,True,4,medium,Level 1,medium,normal,206,16,"Pediatrics, Internal Medicine, Orthopedics",https://www.jgh.ca,6,9,34
HOSP-CAN-00259,Vancouver General Hospital,Vancouver,British Columbia,Canada,North America,49.2616,-123.1226,950,624,Large,65.68,Low,True,112,True,6,critical,Level 1,critical,normal,108,17,"Surgery, Gynecology, Obstetrics, Neurology",https://www.vch.ca/locations-services/vgh,6,7,12
HOSP-CAN-00260,St. Paul's Hospital Vancouver,Vancouver,British Columbia,Canada,North America,49.2799,-123.1246,548,487,Large,88.87,High,True,76,True,3,critical,Level 1,low,normal,185,16,"Oncology, Surgery, Obstetrics",https://www.sphv.ca,7,4,30
HOSP-CAN-00261,BC Children's Hospital,Vancouver,British Columbia,Canada,North America,49.2426,-123.1219,306,231,Medium,75.49,Moderate,True,34,True,2,medium,Level 3,medium,normal,102,15,"Dermatology, Oncology, Cardiology",https://www.bcchildrens.ca,10,4,37
HOSP-CAN-00262,Foothills Medical Centre,Calgary,Alberta,Canada,North America,51.0641,-114.133,1140,798,Very Large,70.0,Moderate,True,106,True,7,critical,Level 1,low,normal,24,9,"Internal Medicine, Pediatrics, Orthopedics, Anesthesiology, Emergency Medicine",https://www.albertahealthservices.ca/fmc,7,9,44
HOSP-CAN-00263,Peter Lougheed Centre,Calgary,Alberta,Canada,North America,51.0905,-113.9659,606,418,Large,68.98,Low,True,70,True,4,high,Level 1,high,normal,46,11,"Dermatology, Emergency Medicine, Ophthalmology",https://www.albertahealthservices.ca/plc,8,5,16
HOSP-CAN-00264,The Ottawa Hospital,Ottawa,Ontario,Canada,North America,45.4119,-75.6968,1100,741,Very Large,67.36,Low,True,59,True,7,high,Level 1,medium,normal,55,17,"Neurology, Oncology, Anesthesiology, Cardiology, Internal Medicine",https://www.ottawahospital.on.ca,6,7,44
HOSP-CAN-00265,Children's Hospital of Eastern Ontario,Ottawa,Ontario,Canada,North America,45.4177,-75.6517,167,149,Small,89.22,High,True,16,True,2,medium,,medium,alert,227,11,"Cardiology, Orthopedics, Anesthesiology",https://www.cheo.on.ca,8,5,40
HOSP-USA-00266,Mayo Clinic Hospital Phoenix,Phoenix,Arizona,USA,North America,33.5063,-111.9784,280,201,Medium,71.79,Moderate,True,16,True,2,medium,Level 3,medium,normal,40,25,"Cardiology, Surgery, Pediatrics",https://www.mayoclinic.org/phoenix,8,7,31
HOSP-USA-00267,Banner University Medical Center Phoenix,Phoenix,Arizona,USA,North America,33.451,-112.0679,688,473,Large,68.75,Low,True,88,True,4,critical,Level 2,low,normal,30,18,"Neurology, Oncology, Orthopedics",https://www.bannerhealth.com/locations/phoenix,7,4,23
HOSP-USA-00268,HonorHealth Scottsdale Osborn Medical Center,Phoenix,Arizona,USA,North America,33.4942,-111.9264,347,291,Medium,83.86,Moderate,True,23,True,2,high,Level 3,low,normal,59,25,"Oncology, Radiology, Pediatrics",https://www.honorhealth.com/locations/osborn,9,7,37
HOSP-USA-00269,UCHealth University of Colorado Hospital,Denver,Colorado,USA,North America,39.7439,-104.8339,672,502,Large,74.7,Moderate,True,45,True,4,high,Level 2,medium,normal,38,24,"Cardiology, Emergency Medicine, Anesthesiology",https://www.uchealth.org/locations/uchealth-university-of-colorado-hospital,7,7,26
HOSP-USA-00270,Denver Health Medical Center,Denver,Colorado,USA,North America,39.7321,-104.9917,525,393,Large,74.86,Moderate,True,49,True,3,high,Level 3,high,normal,49,20,"Pediatrics, Psychiatry, Ophthalmology",https://www.denverhealth.org,7,6,12
HOSP-USA-00271,Children's Hospital Colorado,Denver,Colorado,USA,North America,39.7467,-104.8355,520,431,Large,82.88,Moderate,True,26,True,3,high,Level 1,low,normal,118,8,"Oncology, Radiology, Psychiatry",https://www.childrenscolorado.org,7,4,25
HOSP-USA-00272,Emory University Hospital,Atlanta,Georgia,USA,North America,33.7949,-84.3244,587,522,Large,88.93,High,True,78,True,3,high,Level 1,high,alert,138,25,"Obstetrics, Radiology, Orthopedics",https://www.emoryhealthcare.org/emory-university-hospital,7,8,36
HOSP-USA-00273,Grady Memorial Hospital,Atlanta,Georgia,USA,North America,33.7558,-84.3863,953,672,Large,70.51,Moderate,True,69,True,6,high,Level 2,low,normal,26,19,"Cardiology, Radiology, Psychiatry, Dermatology",https://www.gradyhealth.org,9,8,16
HOSP-USA-00274,Piedmont Atlanta Hospital,Atlanta,Georgia,USA,North America,33.7907,-84.378,511,452,Large,88.45,High,True,35,True,3,medium,Level 2,low,alert,123,13,"Pediatrics, Oncology, Surgery",https://www.piedmont.org/locations/piedmont-atlanta-hospital,7,6,33
HOSP-USA-00275,UT Southwestern Medical Center,Dallas,Texas,USA,North America,32.8139,-96.8475,865,734,Large,84.86,Moderate,True,97,True,5,critical,Level 2,low,normal,102,25,"Obstetrics, Internal Medicine, Dermatology, Pediatrics",https://www.utsouthwestern.edu/patients,10,6,43
HOSP-USA-00276,Parkland Memorial Hospital,Dallas,Texas,USA,North America,32.7977,-96.8364,870,706,Large,81.15,Moderate,True,46,True,5,critical,Level 2,medium,alert,117,25,"Gynecology, Anesthesiology, Internal Medicine, Ophthalmology",https://www.parklandhospital.com,10,5,35
HOSP-USA-00277,Baylor University Medical Center,Dallas,Texas,USA,North America,32.7862,-96.7886,875,617,Large,70.51,Moderate,True,72,True,5,high,Level 3,high,normal,104,10,"Emergency Medicine, Neurology, Dermatology, Surgery",https://www.baylorhealth.com/locations/dallas,8,4,20
HOSP-USA-00278,University Medical Center of Southern Nevada,Las Vegas,Nevada,USA,North America,36.1699,-115.1398,541,476,Large,87.99,High,True,43,True,3,high,Level 2,high,alert,173,13,"Pediatrics, Anesthesiology, Orthopedics",https://www.umcsn.com,8,9,26
HOSP-USA-00279,Sunrise Hospital and Medical Center,Las Vegas,Nevada,USA,North America,36.129,-115.1049,694,611,Large,88.04,High,True,51,True,4,high,Level 2,high,alert,164,11,"Emergency Medicine, Neurology, Anesthesiology",https://www.sunrisehospital.com,8,4,17
HOSP-USA-00280,Oregon Health & Science University Hospital,Portland,Oregon,USA,North America,45.4987,-122.6844,576,391,Large,67.88,Low,True,40,True,3,medium,Level 2,medium,normal,48,21,"Pediatrics, Ophthalmology, Surgery",https://www.ohsu.edu,7,7,29
HOSP-USA-00281,Legacy Emanuel Medical Center,Portland,Oregon,USA,North America,45.538,-122.6681,554,460,Large,83.03,Moderate,True,35,True,3,high,Level 1,critical,normal,195,17,"Internal Medicine, Anesthesiology, Obstetrics",https://www.legacyhealth.org/emanuel,8,6,33
HOSP-USA-00282,University of Minnesota Medical Center,Minneapolis,Minnesota,USA,North America,44.9716,-93.2343,804,558,Large,69.4,Low,True,46,True,5,high,Level 2,medium,normal,55,16,"Gynecology, Orthopedics, Surgery, Ophthalmology",https://www.mhealth.org,9,8,42
HOSP-USA-00283,Abbott Northwestern Hospital,Minneapolis,Minnesota,USA,North America,44.9493,-93.2529,673,450,Large,66.86,Low,True,66,True,4,critical,Level 2,high,normal,66,9,"Obstetrics, Orthopedics, Neurology",https://www.allinahealth.org/abbott-northwestern-hospital,10,7,45
HOSP-USA-00284,Hennepin Healthcare,Minneapolis,Minnesota,USA,North America,44.9773,-93.2633,471,376,Medium,79.83,Moderate,True,64,True,3,high,Level 2,medium,normal,59,11,"Cardiology, Radiology, Psychiatry",https://www.hennepinhealthcare.org,7,7,34
